{
    "network": {
        "name": "London Overground",
        "short_name": "Overground",
        "key": "overground"
    },
    "lines": [
        {
            "colour": "#EE7D11",
            "branches": [],
            "id": "ELL",
            "short_name": "East London",
            "name": "East London Line"
        },
        {
            "colour": "#EE7D11",
            "branches": [],
            "id": "GOB",
            "short_name": "Gospel Oak to Barking",
            "name": "Gospel Oak to Barking Line"
        },
        {
            "colour": "#EE7D11",
            "branches": [],
            "id": "NLL",
            "short_name": "North London",
            "name": "North London Line"
        },
        {
            "colour": "#EE7D11",
            "branches": [],
            "id": "SLL",
            "short_name": "South London",
            "name": "South London Line"
        },
        {
            "colour": "#EE7D11",
            "branches": [],
            "id": "WDC",
            "short_name": "Watford DC",
            "name": "Watford DC Line"
        },
        {
            "colour": "#EE7D11",
            "branches": [],
            "id": "WLL",
            "short_name": "West London",
            "name": "West London Line"
        }
    ],
    "stations": [
        {
            "interchanges": [],
            "name": "Acton Central",
            "lines": [
                {
                    "line_id": "NLL",
                    "branches": []
                }
            ],
            "longitude": "-0.2634157923",
            "latitude": "51.508757812",
            "id": 1
        },
        {
            "interchanges": [],
            "name": "Anerley",
            "lines": [
                {
                    "line_id": "ELL",
                    "branches": []
                }
            ],
            "longitude": "-0.0651227232",
            "latitude": "51.4125167254",
            "id": 2
        },
        {
            "interchanges": [],
            "name": "Barking",
            "lines": [
                {
                    "line_id": "GOB",
                    "branches": []
                }
            ],
            "longitude": "0.0808460269",
            "latitude": "51.5395211029",
            "id": 3
        },
        {
            "interchanges": [],
            "name": "Battersea Park",
            "lines": [
                {
                    "line_id": "SLL",
                    "branches": []
                }
            ],
            "longitude": "-0.1481093644",
            "latitude": "51.4773183408",
            "id": 4
        },
        {
            "interchanges": [],
            "name": "Blackhorse Road",
            "lines": [
                {
                    "line_id": "GOB",
                    "branches": []
                }
            ],
            "longitude": "-0.03961128",
            "latitude": "51.5857766314",
            "id": 5
        },
        {
            "interchanges": [],
            "name": "Brockley",
            "lines": [
                {
                    "line_id": "ELL",
                    "branches": []
                }
            ],
            "longitude": "-0.0377338572",
            "latitude": "51.4647496667",
            "id": 6
        },
        {
            "interchanges": [],
            "name": "Brondesbury",
            "lines": [
                {
                    "line_id": "NLL",
                    "branches": []
                }
            ],
            "longitude": "-0.2028240671",
            "latitude": "51.5452623868",
            "id": 7
        },
        {
            "interchanges": [],
            "name": "Brondesbury Park",
            "lines": [
                {
                    "line_id": "NLL",
                    "branches": []
                }
            ],
            "longitude": "-0.2104595296",
            "latitude": "51.5403253911",
            "id": 8
        },
        {
            "interchanges": [],
            "name": "Bushey",
            "lines": [
                {
                    "line_id": "WDC",
                    "branches": []
                }
            ],
            "longitude": "-0.3847070912",
            "latitude": "51.6455442063",
            "id": 9
        },
        {
            "interchanges": [],
            "name": "Caledonian Road & Barnsbury",
            "lines": [
                {
                    "line_id": "NLL",
                    "branches": []
                }
            ],
            "longitude": "-0.1151904387",
            "latitude": "51.543284589",
            "id": 10
        },
        {
            "interchanges": [],
            "name": "Camden Road",
            "lines": [
                {
                    "line_id": "NLL",
                    "branches": []
                }
            ],
            "longitude": "-0.1391886949",
            "latitude": "51.5418512508",
            "id": 11
        },
        {
            "interchanges": [],
            "name": "Canada Water",
            "lines": [
                {
                    "line_id": "ELL",
                    "branches": []
                }
            ],
            "longitude": "-0.0507927171",
            "latitude": "51.4981684176",
            "id": 12
        },
        {
            "interchanges": [],
            "name": "Canonbury",
            "lines": [
                {
                    "line_id": "NLL",
                    "branches": []
                },
                {
                    "line_id": "ELL",
                    "branches": []
                }
            ],
            "longitude": "-0.0925597762",
            "latitude": "51.548188396",
            "id": 13
        },
        {
            "interchanges": [],
            "name": "Carpenders Park",
            "lines": [
                {
                    "line_id": "WDC",
                    "branches": []
                }
            ],
            "longitude": "-0.3858148791",
            "latitude": "51.6281867645",
            "id": 14
        },
        {
            "interchanges": [],
            "name": "Clapham High Street",
            "lines": [
                {
                    "line_id": "SLL",
                    "branches": []
                }
            ],
            "longitude": "-0.1324501091",
            "latitude": "51.4654695294",
            "id": 15
        },
        {
            "interchanges": [],
            "name": "Clapham Junction",
            "lines": [
                {
                    "line_id": "WLL",
                    "branches": []
                },
                {
                    "line_id": "SLL",
                    "branches": []
                }
            ],
            "longitude": "-0.1703006091",
            "latitude": "51.4643668047",
            "id": 16
        },
        {
            "interchanges": [],
            "name": "Crouch Hill",
            "lines": [
                {
                    "line_id": "GOB",
                    "branches": []
                }
            ],
            "longitude": "-0.117118858",
            "latitude": "51.5713271114",
            "id": 17
        },
        {
            "interchanges": [],
            "name": "Crystal Palace",
            "lines": [
                {
                    "line_id": "ELL",
                    "branches": []
                }
            ],
            "longitude": "-0.0725928541",
            "latitude": "51.4181703599",
            "id": 18
        },
        {
            "interchanges": [],
            "name": "Dalston Junction",
            "lines": [
                {
                    "line_id": "ELL",
                    "branches": []
                }
            ],
            "longitude": "-0.0749797859",
            "latitude": "51.5460937243",
            "id": 19
        },
        {
            "interchanges": [],
            "name": "Dalston Kingsland",
            "lines": [
                {
                    "line_id": "NLL",
                    "branches": []
                }
            ],
            "longitude": "-0.0762125022",
            "latitude": "51.5486678271",
            "id": 20
        },
        {
            "interchanges": [],
            "name": "Denmark Hill",
            "lines": [
                {
                    "line_id": "SLL",
                    "branches": []
                }
            ],
            "longitude": "-0.0909734752",
            "latitude": "51.46820065",
            "id": 21
        },
        {
            "interchanges": [],
            "name": "Euston",
            "lines": [
                {
                    "line_id": "WDC",
                    "branches": []
                }
            ],
            "longitude": "-0.1332820584",
            "latitude": "51.5286643464",
            "id": 22
        },
        {
            "interchanges": [],
            "name": "Finchley Road & Frognal",
            "lines": [
                {
                    "line_id": "NLL",
                    "branches": []
                }
            ],
            "longitude": "-0.1836367825",
            "latitude": "51.5501195203",
            "id": 23
        },
        {
            "interchanges": [],
            "name": "Forest Hill",
            "lines": [
                {
                    "line_id": "ELL",
                    "branches": []
                }
            ],
            "longitude": "-0.0533141191",
            "latitude": "51.4393083184",
            "id": 24
        },
        {
            "interchanges": [],
            "name": "Gospel Oak",
            "lines": [
                {
                    "line_id": "NLL",
                    "branches": []
                },
                {
                    "line_id": "GOB",
                    "branches": []
                }
            ],
            "longitude": "-0.1512866107",
            "latitude": "51.5554053113",
            "id": 25
        },
        {
            "interchanges": [],
            "name": "Gunnersbury",
            "lines": [
                {
                    "line_id": "NLL",
                    "branches": []
                }
            ],
            "longitude": "-0.2751497341",
            "latitude": "51.4918634447",
            "id": 26
        },
        {
            "interchanges": [],
            "name": "Hackney Central",
            "lines": [
                {
                    "line_id": "NLL",
                    "branches": []
                }
            ],
            "longitude": "-0.0555750926",
            "latitude": "51.5472574513",
            "id": 27
        },
        {
            "interchanges": [],
            "name": "Hackney Wick",
            "lines": [
                {
                    "line_id": "NLL",
                    "branches": []
                }
            ],
            "longitude": "-0.0252450846",
            "latitude": "51.5435584091",
            "id": 28
        },
        {
            "interchanges": [],
            "name": "Haggerston",
            "lines": [
                {
                    "line_id": "ELL",
                    "branches": []
                }
            ],
            "longitude": "-0.0755808415",
            "latitude": "51.5386847389",
            "id": 29
        },
        {
            "interchanges": [],
            "name": "Hampstead Heath",
            "lines": [
                {
                    "line_id": "NLL",
                    "branches": []
                }
            ],
            "longitude": "-0.1645517614",
            "latitude": "51.5551999443",
            "id": 30
        },
        {
            "interchanges": [],
            "name": "Harlesden",
            "lines": [
                {
                    "line_id": "WDC",
                    "branches": []
                }
            ],
            "longitude": "-0.2574812585",
            "latitude": "51.5362583588",
            "id": 31
        },
        {
            "interchanges": [],
            "name": "Harringay Green Lanes",
            "lines": [
                {
                    "line_id": "GOB",
                    "branches": []
                }
            ],
            "longitude": "-0.098202963",
            "latitude": "51.5771459045",
            "id": 32
        },
        {
            "interchanges": [],
            "name": "Harrow & Wealdstone",
            "lines": [
                {
                    "line_id": "WDC",
                    "branches": []
                }
            ],
            "longitude": "-0.3342382516",
            "latitude": "51.5925946732",
            "id": 33
        },
        {
            "interchanges": [],
            "name": "Hatch End",
            "lines": [
                {
                    "line_id": "WDC",
                    "branches": []
                }
            ],
            "longitude": "-0.3691643421",
            "latitude": "51.6098285488",
            "id": 34
        },
        {
            "interchanges": [],
            "name": "Headstone Lane",
            "lines": [
                {
                    "line_id": "WDC",
                    "branches": []
                }
            ],
            "longitude": "-0.3568930778",
            "latitude": "51.6024996695",
            "id": 35
        },
        {
            "interchanges": [],
            "name": "Highbury & Islington",
            "lines": [
                {
                    "line_id": "NLL",
                    "branches": []
                },
                {
                    "line_id": "ELL",
                    "branches": []
                }
            ],
            "longitude": "-0.1040677208",
            "latitude": "51.5464955189",
            "id": 36
        },
        {
            "interchanges": [],
            "name": "Homerton",
            "lines": [
                {
                    "line_id": "NLL",
                    "branches": []
                }
            ],
            "longitude": "-0.038497928",
            "latitude": "51.5465954508",
            "id": 37
        },
        {
            "interchanges": [],
            "name": "Honor Oak Park",
            "lines": [
                {
                    "line_id": "ELL",
                    "branches": []
                }
            ],
            "longitude": "-0.0441387322",
            "latitude": "51.4506482457",
            "id": 38
        },
        {
            "interchanges": [],
            "name": "Hoxton",
            "lines": [
                {
                    "line_id": "ELL",
                    "branches": []
                }
            ],
            "longitude": "-0.0755712329",
            "latitude": "51.5313916213",
            "id": 39
        },
        {
            "interchanges": [],
            "name": "Imperial Wharf",
            "lines": [
                {
                    "line_id": "WLL",
                    "branches": []
                }
            ],
            "longitude": "-0.1828231083",
            "latitude": "51.4749389489",
            "id": 40
        },
        {
            "interchanges": [],
            "name": "Kensal Green",
            "lines": [
                {
                    "line_id": "WDC",
                    "branches": []
                }
            ],
            "longitude": "-0.2246989701",
            "latitude": "51.5305242412",
            "id": 41
        },
        {
            "interchanges": [],
            "name": "Kensal Rise",
            "lines": [
                {
                    "line_id": "NLL",
                    "branches": []
                }
            ],
            "longitude": "-0.2208065635",
            "latitude": "51.5342150912",
            "id": 42
        },
        {
            "interchanges": [],
            "name": "Kensington (Olympia)",
            "lines": [
                {
                    "line_id": "WLL",
                    "branches": []
                }
            ],
            "longitude": "-0.2103648387",
            "latitude": "51.4978797245",
            "id": 43
        },
        {
            "interchanges": [],
            "name": "Kentish Town West",
            "lines": [
                {
                    "line_id": "NLL",
                    "branches": []
                }
            ],
            "longitude": "-0.1467419908",
            "latitude": "51.546547987",
            "id": 44
        },
        {
            "interchanges": [],
            "name": "Kenton",
            "lines": [
                {
                    "line_id": "WDC",
                    "branches": []
                }
            ],
            "longitude": "-0.3152024366",
            "latitude": "51.581496322",
            "id": 45
        },
        {
            "interchanges": [],
            "name": "Kew Gardens",
            "lines": [
                {
                    "line_id": "NLL",
                    "branches": []
                }
            ],
            "longitude": "-0.2853666145",
            "latitude": "51.4767891708",
            "id": 46
        },
        {
            "interchanges": [],
            "name": "Kilburn High Road",
            "lines": [
                {
                    "line_id": "WDC",
                    "branches": []
                }
            ],
            "longitude": "-0.1910986896",
            "latitude": "51.5372677641",
            "id": 47
        },
        {
            "interchanges": [],
            "name": "Leyton Midland Road",
            "lines": [
                {
                    "line_id": "GOB",
                    "branches": []
                }
            ],
            "longitude": "-0.0080519211",
            "latitude": "51.5693642398",
            "id": 48
        },
        {
            "interchanges": [],
            "name": "Leytonstone High Road",
            "lines": [
                {
                    "line_id": "GOB",
                    "branches": []
                }
            ],
            "longitude": "0.0082688934",
            "latitude": "51.5638073426",
            "id": 49
        },
        {
            "interchanges": [],
            "name": "New Cross",
            "lines": [
                {
                    "line_id": "ELL",
                    "branches": []
                }
            ],
            "longitude": "-0.0322644145",
            "latitude": "51.4764294186",
            "id": 50
        },
        {
            "interchanges": [],
            "name": "New Cross Gate",
            "lines": [
                {
                    "line_id": "ELL",
                    "branches": []
                }
            ],
            "longitude": "-0.0395146553",
            "latitude": "51.4752649325",
            "id": 51
        },
        {
            "interchanges": [],
            "name": "North Wembley",
            "lines": [
                {
                    "line_id": "WDC",
                    "branches": []
                }
            ],
            "longitude": "-0.3039337954",
            "latitude": "51.5623963284",
            "id": 52
        },
        {
            "interchanges": [],
            "name": "Norwood Junction",
            "lines": [
                {
                    "line_id": "ELL",
                    "branches": []
                }
            ],
            "longitude": "-0.0751954845",
            "latitude": "51.3969543308",
            "id": 53
        },
        {
            "interchanges": [],
            "name": "Peckham Rye",
            "lines": [
                {
                    "line_id": "SLL",
                    "branches": []
                }
            ],
            "longitude": "-0.0699691584",
            "latitude": "51.4695113728",
            "id": 54
        },
        {
            "interchanges": [],
            "name": "Penge West",
            "lines": [
                {
                    "line_id": "ELL",
                    "branches": []
                }
            ],
            "longitude": "-0.0606313859",
            "latitude": "51.418062935",
            "id": 55
        },
        {
            "interchanges": [],
            "name": "Queen's Park",
            "lines": [
                {
                    "line_id": "WDC",
                    "branches": []
                }
            ],
            "longitude": "-0.2047837342",
            "latitude": "51.5343126752",
            "id": 56
        },
        {
            "interchanges": [],
            "name": "Queens Road Peckham",
            "lines": [
                {
                    "line_id": "SLL",
                    "branches": []
                }
            ],
            "longitude": "-0.0573405825",
            "latitude": "51.4742847158",
            "id": 57
        },
        {
            "interchanges": [],
            "name": "Richmond",
            "lines": [
                {
                    "line_id": "NLL",
                    "branches": []
                }
            ],
            "longitude": "-0.3017247413",
            "latitude": "51.4632329223",
            "id": 58
        },
        {
            "interchanges": [],
            "name": "Rotherhithe",
            "lines": [
                {
                    "line_id": "ELL",
                    "branches": []
                }
            ],
            "longitude": "-0.0529518915",
            "latitude": "51.5015945108",
            "id": 59
        },
        {
            "interchanges": [],
            "name": "Shadwell",
            "lines": [
                {
                    "line_id": "ELL",
                    "branches": []
                }
            ],
            "longitude": "-0.0569047991",
            "latitude": "51.5113001617",
            "id": 60
        },
        {
            "interchanges": [],
            "name": "Shepherd's Bush (H)",
            "lines": [
                {
                    "line_id": "WLL",
                    "branches": []
                }
            ],
            "longitude": "-0.2273860872",
            "latitude": "51.5058807355",
            "id": 61
        },
        {
            "interchanges": [],
            "name": "Shoreditch",
            "lines": [
                {
                    "line_id": "ELL",
                    "branches": []
                }
            ],
            "longitude": "-0.0770730129",
            "latitude": "51.5234668279",
            "id": 62
        },
        {
            "interchanges": [],
            "name": "South Acton",
            "lines": [
                {
                    "line_id": "NLL",
                    "branches": []
                }
            ],
            "longitude": "-0.2702008033",
            "latitude": "51.499685861",
            "id": 63
        },
        {
            "interchanges": [],
            "name": "South Hampstead",
            "lines": [
                {
                    "line_id": "WDC",
                    "branches": []
                }
            ],
            "longitude": "-0.1783567825",
            "latitude": "51.541476869",
            "id": 64
        },
        {
            "interchanges": [],
            "name": "South Kenton",
            "lines": [
                {
                    "line_id": "WDC",
                    "branches": []
                }
            ],
            "longitude": "-0.3081285506",
            "latitude": "51.5710444868",
            "id": 65
        },
        {
            "interchanges": [],
            "name": "South Tottenham",
            "lines": [
                {
                    "line_id": "GOB",
                    "branches": []
                }
            ],
            "longitude": "-0.0718415268",
            "latitude": "51.5804025945",
            "id": 66
        },
        {
            "interchanges": [],
            "name": "Stonebridge Park",
            "lines": [
                {
                    "line_id": "WDC",
                    "branches": []
                }
            ],
            "longitude": "-0.2753860234",
            "latitude": "51.5439865874",
            "id": 67
        },
        {
            "interchanges": [],
            "name": "Stratford",
            "lines": [
                {
                    "line_id": "NLL",
                    "branches": []
                }
            ],
            "longitude": "-0.0037372234",
            "latitude": "51.5416925793",
            "id": 68
        },
        {
            "interchanges": [],
            "name": "Surrey Quays",
            "lines": [
                {
                    "line_id": "ELL",
                    "branches": []
                },
                {
                    "line_id": "SLL",
                    "branches": []
                }
            ],
            "longitude": "-0.0475155853",
            "latitude": "51.4932668622",
            "id": 69
        },
        {
            "interchanges": [],
            "name": "Sydenham",
            "lines": [
                {
                    "line_id": "ELL",
                    "branches": []
                }
            ],
            "longitude": "-0.0550742894",
            "latitude": "51.427341258",
            "id": 70
        },
        {
            "interchanges": [],
            "name": "Upper Holloway",
            "lines": [
                {
                    "line_id": "GOB",
                    "branches": []
                }
            ],
            "longitude": "-0.1290949392",
            "latitude": "51.56362332",
            "id": 71
        },
        {
            "interchanges": [],
            "name": "Walthamstow Queen's Road",
            "lines": [
                {
                    "line_id": "GOB",
                    "branches": []
                }
            ],
            "longitude": "-0.0238295131",
            "latitude": "51.5815461939",
            "id": 72
        },
        {
            "interchanges": [],
            "name": "Wandsworth Road",
            "lines": [
                {
                    "line_id": "SLL",
                    "branches": []
                }
            ],
            "longitude": "-0.1390232807",
            "latitude": "51.4702232188",
            "id": 73
        },
        {
            "interchanges": [],
            "name": "Wanstead Park",
            "lines": [
                {
                    "line_id": "GOB",
                    "branches": []
                }
            ],
            "longitude": "0.0264043638",
            "latitude": "51.5517780747",
            "id": 74
        },
        {
            "interchanges": [],
            "name": "Wapping",
            "lines": [
                {
                    "line_id": "ELL",
                    "branches": []
                }
            ],
            "longitude": "-0.0558464087",
            "latitude": "51.5043403227",
            "id": 75
        },
        {
            "interchanges": [],
            "name": "Watford High Street",
            "lines": [
                {
                    "line_id": "WDC",
                    "branches": []
                }
            ],
            "longitude": "-0.3916822769",
            "latitude": "51.6526537522",
            "id": 76
        },
        {
            "interchanges": [],
            "name": "Watford Junction",
            "lines": [
                {
                    "line_id": "WDC",
                    "branches": []
                }
            ],
            "longitude": "-0.3961575012",
            "latitude": "51.6638830615",
            "id": 77
        },
        {
            "interchanges": [],
            "name": "Wembley Central",
            "lines": [
                {
                    "line_id": "WDC",
                    "branches": []
                }
            ],
            "longitude": "-0.2963779064",
            "latitude": "51.5518648162",
            "id": 78
        },
        {
            "interchanges": [],
            "name": "West Brompton",
            "lines": [
                {
                    "line_id": "WLL",
                    "branches": []
                }
            ],
            "longitude": "-0.1955244115",
            "latitude": "51.4873289382",
            "id": 79
        },
        {
            "interchanges": [],
            "name": "West Croydon",
            "lines": [
                {
                    "line_id": "ELL",
                    "branches": []
                }
            ],
            "longitude": "-0.1020199266",
            "latitude": "51.3785521861",
            "id": 80
        },
        {
            "interchanges": [],
            "name": "West Hampstead",
            "lines": [
                {
                    "line_id": "NLL",
                    "branches": []
                }
            ],
            "longitude": "-0.1911121662",
            "latitude": "51.547474356",
            "id": 81
        },
        {
            "interchanges": [],
            "name": "Whitechapel",
            "lines": [
                {
                    "line_id": "ELL",
                    "branches": []
                }
            ],
            "longitude": "-0.0594060746",
            "latitude": "51.5195877923",
            "id": 82
        },
        {
            "interchanges": [],
            "name": "Willesden Junction",
            "lines": [
                {
                    "line_id": "NLL",
                    "branches": []
                },
                {
                    "line_id": "WLL",
                    "branches": []
                },
                {
                    "line_id": "WDC",
                    "branches": []
                }
            ],
            "longitude": "-0.2438947288",
            "latitude": "51.5322339929",
            "id": 83
        },
        {
            "interchanges": [],
            "name": "Woodgrange Park",
            "lines": [
                {
                    "line_id": "GOB",
                    "branches": []
                }
            ],
            "longitude": "0.044586916",
            "latitude": "51.5490525292",
            "id": 84
        }
    ]
}